{
"type": "FeatureCollection",
"name": "Bradford_Cocking_Wood_external_entrances",
"crs": { "type": "name", "properties": { "name": "urn:ogc:def:crs:OGC:1.3:CRS84" } },
"features": [
{ "type": "Feature", "properties": { "id": null, "access_type": "foot", "Park Name": "Church Orchard", "Park Segment Name": "Church Orchard", "source": "calculated", "highway_type": "footway" }, "geometry": { "type": "Point", "coordinates": [ -1.871902922073178, 53.942303295107692 ] } },
{ "type": "Feature", "properties": { "id": null, "access_type": "foot", "Park Name": "Lumb Gill Wood", "Park Segment Name": "Lumb Gill Wood", "source": "calculated", "highway_type": "footway" }, "geometry": { "type": "Point", "coordinates": [ -1.871974414539806, 53.935941321077124 ] } },
{ "type": "Feature", "properties": { "id": null, "access_type": "foot", "Park Name": "Lumb Gill Wood", "Park Segment Name": "Lumb Gill Wood", "source": "calculated", "highway_type": "footway" }, "geometry": { "type": "Point", "coordinates": [ -1.871379856783866, 53.935171365655286 ] } },
{ "type": "Feature", "properties": { "id": null, "access_type": "foot", "Park Name": "Greenwood Wood", "Park Segment Name": "Greenwood Wood", "source": "calculated", "highway_type": "footway" }, "geometry": { "type": "Point", "coordinates": [ -1.852277269905553, 53.930524832764014 ] } },
{ "type": "Feature", "properties": { "id": null, "access_type": "foot", "Park Name": "Greenwood Wood", "Park Segment Name": "Greenwood Wood", "source": "calculated", "highway_type": "footway" }, "geometry": { "type": "Point", "coordinates": [ -1.852390331238364, 53.930586870817784 ] } },
{ "type": "Feature", "properties": { "id": null, "access_type": "foot", "Park Name": "Blow Bank", "Park Segment Name": "Blow Bank", "source": "calculated", "highway_type": "footway" }, "geometry": { "type": "Point", "coordinates": [ -1.851456407611201, 53.930730994067595 ] } },
{ "type": "Feature", "properties": { "id": null, "access_type": "foot", "Park Name": "Blow Bank", "Park Segment Name": "Blow Bank", "source": "calculated", "highway_type": "footway" }, "geometry": { "type": "Point", "coordinates": [ -1.849594456850437, 53.931243782064684 ] } },
{ "type": "Feature", "properties": { "id": null, "access_type": "foot", "Park Name": "Blow Bank", "Park Segment Name": "Blow Bank", "source": "calculated", "highway_type": "footway" }, "geometry": { "type": "Point", "coordinates": [ -1.854833445896098, 53.931388223313 ] } },
{ "type": "Feature", "properties": { "id": null, "access_type": "foot", "Park Name": "Blow Bank", "Park Segment Name": "Blow Bank", "source": "calculated", "highway_type": "footway" }, "geometry": { "type": "Point", "coordinates": [ -1.855096218707519, 53.931571854746394 ] } },
{ "type": "Feature", "properties": { "id": null, "access_type": "foot", "Park Name": "Blow Bank", "Park Segment Name": "Blow Bank", "source": "calculated", "highway_type": "footway" }, "geometry": { "type": "Point", "coordinates": [ -1.854291426677336, 53.931003152021816 ] } },
{ "type": "Feature", "properties": { "id": null, "access_type": "foot", "Park Name": "Blow Bank", "Park Segment Name": "Blow Bank", "source": "calculated", "highway_type": "footway" }, "geometry": { "type": "Point", "coordinates": [ -1.854418472596132, 53.931068 ] } }
]
}
