{
"type": "FeatureCollection",
"name": "Bradford_Howden_Wood_external_entrances",
"crs": { "type": "name", "properties": { "name": "urn:ogc:def:crs:OGC:1.3:CRS84" } },
"features": [
{ "type": "Feature", "properties": { "id": null, "access_type": "foot", "Park Name": "Old Wood", "Park Segment Name": "Old Wood", "source": "calculated", "highway_type": "footway" }, "geometry": { "type": "Point", "coordinates": [ -1.779107867157512, 53.873492342745664 ] } },
{ "type": "Feature", "properties": { "id": null, "access_type": "foot", "Park Name": "Howden Wood", "Park Segment Name": "Howden Wood", "source": "calculated", "highway_type": "footway" }, "geometry": { "type": "Point", "coordinates": [ -1.776193703334605, 53.86577583303341 ] } },
{ "type": "Feature", "properties": { "id": null, "access_type": "foot", "Park Name": "Howden Wood", "Park Segment Name": "Howden Wood", "source": "calculated", "highway_type": "footway" }, "geometry": { "type": "Point", "coordinates": [ -1.776627270558026, 53.866493683213875 ] } },
{ "type": "Feature", "properties": { "id": null, "access_type": "foot", "Park Name": "Great Wood", "Park Segment Name": "Great Wood", "source": "calculated", "highway_type": "steps" }, "geometry": { "type": "Point", "coordinates": [ -1.7801516, 53.8719916 ] } },
{ "type": "Feature", "properties": { "id": null, "access_type": "foot", "Park Name": "Great Wood", "Park Segment Name": "Great Wood", "source": "calculated", "highway_type": "footway" }, "geometry": { "type": "Point", "coordinates": [ -1.780037834202365, 53.872882202265863 ] } },
{ "type": "Feature", "properties": { "id": null, "access_type": "foot", "Park Name": "Great Wood", "Park Segment Name": "Great Wood", "source": "calculated", "highway_type": "footway" }, "geometry": { "type": "Point", "coordinates": [ -1.780632300000037, 53.873042 ] } },
{ "type": "Feature", "properties": { "id": null, "access_type": "foot", "Park Name": "Honey Joan Wood", "Park Segment Name": "Honey Joan Wood", "source": "calculated", "highway_type": "footway" }, "geometry": { "type": "Point", "coordinates": [ -1.770542704237476, 53.868628452847148 ] } },
{ "type": "Feature", "properties": { "id": null, "access_type": "foot", "Park Name": "Honey Joan Wood", "Park Segment Name": "Honey Joan Wood", "source": "calculated", "highway_type": "footway" }, "geometry": { "type": "Point", "coordinates": [ -1.770559630909695, 53.868645036079656 ] } },
{ "type": "Feature", "properties": { "id": null, "access_type": "foot", "Park Name": "Roundabout Wood", "Park Segment Name": "Roundabout Wood", "source": "calculated", "highway_type": "footway" }, "geometry": { "type": "Point", "coordinates": [ -1.768113046883227, 53.866493301547209 ] } }
]
}
